<?xml version='1.0' encoding='cp1251'?>
<pricelists>
  <pricelist>
    <name>Тимирязева, 29</name>
    <url>price-620.xml</url>
    <shops>
      <shop type="salon_and_release">
        <name>Мир Еды</name>
        <city>Челябинск</city>
        <address>Тимирязева, 29</address>
        <coord>
          <latitude>55.1576823</latitude>
          <longitude>61.4084545</longitude>
        </coord>
      </shop>
    </shops>
  </pricelist>
  <pricelist>
    <name>Цвиллинга, 25</name>
    <url>price-621.xml</url>
    <shops>
      <shop type="salon_and_release">
        <name>Мир Еды</name>
        <city>Челябинск</city>
        <address>Цвиллинга, 25</address>
        <coord>
          <latitude>55.1648686</latitude>
          <longitude>61.4049569</longitude>
        </coord>
      </shop>
    </shops>
  </pricelist>
  <pricelist>
    <name>Курчатова, 5в</name>
    <url>price-761.xml</url>
    <shops>
      <shop type="salon">
        <name>Мир Еды</name>
        <city>Челябинск</city>
        <address>Курчатова, 5в</address>
        <coord>
          <latitude>55.147016</latitude>
          <longitude>61.394666</longitude>
        </coord>
      </shop>
    </shops>
  </pricelist>
  <pricelist>
    <name>Дзержинского, 104</name>
    <url>price-763.xml</url>
    <shops>
      <shop type="salon">
        <name>Мир Еды</name>
        <city>Челябинск</city>
        <address>Дзержинского, 104</address>
        <coord>
          <latitude>55.132649</latitude>
          <longitude>61.43368</longitude>
        </coord>
      </shop>
    </shops>
  </pricelist>
  <pricelist>
    <name>Ворошилова, 57а</name>
    <url>price-765.xml</url>
    <shops>
      <shop type="salon">
        <name>Мир Еды</name>
        <city>Челябинск</city>
        <address>Ворошилова, 57а</address>
        <coord>
          <latitude>55.195909</latitude>
          <longitude>61.321984</longitude>
        </coord>
      </shop>
    </shops>
  </pricelist>
</pricelists>
