<?xml version='1.0' encoding='cp1251'?>
<pricelists>
  <pricelist>
    <name>Победы проспект, 305/1</name>
    <url>price1.xml</url>
    <shops>
      <shop type="salon_and_release">
        <name>Челнефть</name>
        <city>Челябинск</city>
        <address>Победы проспект, 305/1</address>
        <coord>
          <latitude>55.18805</latitude>
          <longitude>61.3092666667</longitude>
        </coord>
      </shop>
    </shops>
  </pricelist>
  <pricelist>
    <name>Чичерина, 15/1</name>
    <url>price2.xml</url>
    <shops>
      <shop type="salon_and_release">
        <name>Челнефть</name>
        <city>Челябинск</city>
        <address>Чичерина, 15/1</address>
        <coord>
          <latitude>55.18435</latitude>
          <longitude>61.2882833333</longitude>
        </coord>
      </shop>
    </shops>
  </pricelist>
  <pricelist>
    <name>Свердловский тракт, 6/1</name>
    <url>price3.xml</url>
    <shops>
      <shop type="salon_and_release">
        <name>Челнефть</name>
        <city>Челябинск</city>
        <address>Свердловский тракт, 6/1</address>
        <coord>
          <latitude>55.2353833333</latitude>
          <longitude>61.3635333333</longitude>
        </coord>
      </shop>
    </shops>
  </pricelist>
  <pricelist>
    <name>Свердловский тракт, 1б/1</name>
    <url>price4.xml</url>
    <shops>
      <shop type="salon_and_release">
        <name>Челнефть</name>
        <city>Челябинск</city>
        <address>Свердловский тракт, 1б/1</address>
        <coord>
          <latitude>55.23555</latitude>
          <longitude>61.3664166667</longitude>
        </coord>
      </shop>
    </shops>
  </pricelist>
  <pricelist>
    <name>Академика Макеева, 7/1</name>
    <url>price5.xml</url>
    <shops>
      <shop type="salon_and_release">
        <name>Челнефть</name>
        <city>Челябинск</city>
        <address>Академика Макеева, 7/1</address>
        <coord>
          <latitude>55.16745</latitude>
          <longitude>61.2964</longitude>
        </coord>
      </shop>
    </shops>
  </pricelist>
  <pricelist>
    <name>Комсомольский проспект, 4/1</name>
    <url>price-975.xml</url>
    <shops>
      <shop type="salon_and_release">
        <name>Челнефть АЗС №28</name>
        <city>Челябинск</city>
        <address>Комсомольский 4/1</address>
        <coord>
          <latitude>55.192457107</latitude>
          <longitude>61.3824348552</longitude>
        </coord>
      </shop>
    </shops>
  </pricelist>
</pricelists>
